{
    "items":[
        {
            "id": "1a",
            "price": 896.27,
            "image":"https://www.shutterstock.com/image-photo/fried-salmon-steak-cooked-green-600nw-2489026949.jpg",
            "rating": 4,
            "title": "Loaded Fries At Aloo Cart",
            "saleOff": 15,
            "location": [
                {"country":"Pakistan", "city":"Lahore"},
                {"country":"Washington D.C.","city":"Southwest"},
                {"country":"New York", "city":"East Village"},
                {"country":"New York","city": "Lower East Side"},
                {"country":"Midtown East","city":"New York"},
                {"country":"Washington D.C.","city": "Southwest"}
            ],
            "userImg":"https://s3-alpha-sig.figma.com/img/048e/9d98/14baed5c8ba185d8ac2ac942a3f0c037?Expires=1736121600&Key-Pair-Id=APKAQ4GOSFWCVNEHN3O4&Signature=OHa3NnIbYx8Kd34LoEg0IS-nyxFbDC0Zs84Q37TrxJcbUIehGK2hgMBYlN6irJC~fK9lrgY5rd4b4Ysw0mTIQx1ZcDhPZfOofSHh8wz-ITYWvBD1Bn8Na6599L0JrckPLEo-8tCfoOnVC7VVDMPbQPy9zA5flpM2rz1TpA0BNinnwVZI6KLOT34CUU6RrqX6sictB72rh1-EzA6wirhOiBzpExDdxn0k1w2RFsOTMJwRXxGk3V1oh-gZ1y3rG2zF8HxKSKTkwH7DtCYl3qus3v0EAaLxYRqJB5ySsaCkPGkaDV1tKHvxSC5NnxRGde6ZxsYTLfuA3hWuaVTC8b7P8g__"
        },
        {
            "id": "2ba",
            "price": 86.27,
            "image":"https://media.istockphoto.com/id/1191425335/photo/american-food-concept-grilled-pork-ribs-with-grilled-sauce-with-smoke-spices-and-rosemary.webp?a=1&b=1&s=612x612&w=0&k=20&c=OydMkBjJlxqFJ9gf08o95eGJam1xo90oT_gk-1ThaOc=",
            "rating": 4,
            "title": "Loaded Fries At Aloo Cart",
            "saleOff": 15,
            "location": [
                {"country":"Pakistan", "city":"Lahore"},
                {"country":"Washington D.C.","city":"Southwest"},
                {"country":"New York", "city":"East Village"},
                {"country":"New York","city": "Lower East Side"},
                {"country":"Midtown East","city":"New York"},
                {"country":"Washington D.C.","city": "Southwest"}
            ],
            "userImg": "https://s3-alpha-sig.figma.com/img/c030/529d/10249ab08c60795694cd15b7577130e2?Expires=1736121600&Key-Pair-Id=APKAQ4GOSFWCVNEHN3O4&Signature=dZjzj4wO-2u8SHE4niwPAT1xvdYuHxPzCEPzcdYMR62H-oqfyVaaosLSH2B27~r786Ot9a1mGpiiryM0YEMFMza5Nq0TLigL1efnCg86uuBDbYl~0YcjE5NN2PRfT6TmFtKXHh6CYBhFAmJ0ACyvPOd~jiYNuuxwDNEApYfwvPwj7RwzHICcyP7arwZ33A5kTqqBte8Yfrq~c6OEmzDFye7IrrUdNgO-n-E~KYV3obuRHLTUMuJGuRRuJlaSska6221VkYWJpp9sBWkecasRYcIRGpqifRuk6hWsOXozSjup247a16bAs~OpuXd8UHj5VFkGnQFCqrL0s6fXh73Qqw__"
        },
        {
            "id": "3c",
            "price": 86.27,
            "image":"https://media.istockphoto.com/id/1161996776/photo/stack-of-pancakes-with-maple-syrup-and-fresh-blueberries.webp?a=1&b=1&s=612x612&w=0&k=20&c=Ajrt63WSPTfF9I0dGX7xTUh98a1L7kOZHbEobi1_cEc=",
            "rating": 4,
            "title": "Loaded Fries At Aloo Cart",
            "saleOff": 15,
            "location": [
                {"country":"Pakistan", "city":"Lahore"},
                {"country":"Washington D.C.","city":"Southwest"},
                {"country":"New York", "city":"East Village"},
                {"country":"New York","city": "Lower East Side"},
                {"country":"Midtown East","city":"New York"},
                {"country":"Washington D.C.","city": "Southwest"}
            ],
            "userImg": "https://s3-alpha-sig.figma.com/img/eadb/b36f/e671035e79447446d147615c9062f750?Expires=1736121600&Key-Pair-Id=APKAQ4GOSFWCVNEHN3O4&Signature=a-627p-PZdDPcfiCwDpDqvOzLMDxOmkHG11FzRR0MyUUJA2jnbFMJspLqpvbPDRD5fckhq1jBbWG86WHYCJb2kiRueq~VzSZ-xwcpZ0yqcnm6ilwCa005qxq680LIiI0Ty05HVwN7unyiMy3eXez2OvYvDFT3WMqa5bRhEe7Jw6BVUkS~noWHJsELGOlxVyIBz48QHNZCmQKN4wqhj-5zc59tMGRxX0gCfJpba6ruXoPw7xHztp3-nSFPloACNbSgzKR-jENcS9cZfqM8pS5QYpN23UJNRe0CwkT75PKtX2uMvHbh8cOiPXVgx0gJV-~gd3EfX0wIkRdwRKapgsKaQ__"
        },
        {
            "id": "4d",
            "price": 86.27,
            "image":"https://images.unsplash.com/photo-1618547748616-3f574909dc3e?w=500&auto=format&fit=crop&q=60&ixlib=rb-4.0.3&ixid=M3wxMjA3fDB8MHxzZWFyY2h8OHx8ZGVsaWNpb3VzJTIwZm9vZHxlbnwwfHwwfHx8MA%3D%3D",
            "rating": 4,
            "title": "Loaded Fries At Aloo Cart",
            "saleOff": 15,
            "location": [
                {"country":"Pakistan", "city":"Lahore"},
                {"country":"Washington D.C.","city":"Southwest"},
                {"country":"New York", "city":"East Village"},
                {"country":"New York","city": "Lower East Side"},
                {"country":"Midtown East","city":"New York"},
                {"country":"Washington D.C.","city": "Southwest"}
            ],
            "userImg":"https://s3-alpha-sig.figma.com/img/048e/9d98/14baed5c8ba185d8ac2ac942a3f0c037?Expires=1736121600&Key-Pair-Id=APKAQ4GOSFWCVNEHN3O4&Signature=OHa3NnIbYx8Kd34LoEg0IS-nyxFbDC0Zs84Q37TrxJcbUIehGK2hgMBYlN6irJC~fK9lrgY5rd4b4Ysw0mTIQx1ZcDhPZfOofSHh8wz-ITYWvBD1Bn8Na6599L0JrckPLEo-8tCfoOnVC7VVDMPbQPy9zA5flpM2rz1TpA0BNinnwVZI6KLOT34CUU6RrqX6sictB72rh1-EzA6wirhOiBzpExDdxn0k1w2RFsOTMJwRXxGk3V1oh-gZ1y3rG2zF8HxKSKTkwH7DtCYl3qus3v0EAaLxYRqJB5ySsaCkPGkaDV1tKHvxSC5NnxRGde6ZxsYTLfuA3hWuaVTC8b7P8g__"
        },
        {
            "id": "5e",
            "price": 86.27,
            "image":"https://images.unsplash.com/photo-1625467163651-fc5b647bcc8b?w=400&auto=format&fit=crop&q=60&ixlib=rb-4.0.3&ixid=M3wxMjA3fDB8MHxzZWFyY2h8MTh8fGRlbGljaW91cyUyMGZvb2R8ZW58MHx8MHx8fDA%3D",
            "rating": 4,
            "title": "Loaded Fries At Aloo Cart",
            "saleOff": 15,
            "location": [
                {"country":"Pakistan", "city":"Lahore"},
                {"country":"Washington D.C.","city":"Southwest"},
                {"country":"New York", "city":"East Village"},
                {"country":"New York","city": "Lower East Side"},
                {"country":"Midtown East","city":"New York"},
                {"country":"Washington D.C.","city": "Southwest"}
            ],
            "userImg": "https://s3-alpha-sig.figma.com/img/c030/529d/10249ab08c60795694cd15b7577130e2?Expires=1736121600&Key-Pair-Id=APKAQ4GOSFWCVNEHN3O4&Signature=dZjzj4wO-2u8SHE4niwPAT1xvdYuHxPzCEPzcdYMR62H-oqfyVaaosLSH2B27~r786Ot9a1mGpiiryM0YEMFMza5Nq0TLigL1efnCg86uuBDbYl~0YcjE5NN2PRfT6TmFtKXHh6CYBhFAmJ0ACyvPOd~jiYNuuxwDNEApYfwvPwj7RwzHICcyP7arwZ33A5kTqqBte8Yfrq~c6OEmzDFye7IrrUdNgO-n-E~KYV3obuRHLTUMuJGuRRuJlaSska6221VkYWJpp9sBWkecasRYcIRGpqifRuk6hWsOXozSjup247a16bAs~OpuXd8UHj5VFkGnQFCqrL0s6fXh73Qqw__"
        },
        {
            "id": "6a",
            "price": 86.27,
            "image":"https://media.istockphoto.com/id/857927726/photo/pasta-with-meat-tomato-sauce-and-vegetables.webp?a=1&b=1&s=612x612&w=0&k=20&c=_NS5Zj-sbBX-0_eypSv1Z_3dQ61Swta9z5zo8zYIkWY=    ",
            "rating": 4,
            "title": "Loaded Fries At Aloo Cart",
            "saleOff": 15,
            "location": [
                {"country":"Pakistan", "city":"Lahore"},
                {"country":"Washington D.C.","city":"Southwest"},
                {"country":"New York", "city":"East Village"},
                {"country":"New York","city": "Lower East Side"},
                {"country":"Midtown East","city":"New York"},
                {"country":"Washington D.C.","city": "Southwest"}
            ],
            "userImg":"https://s3-alpha-sig.figma.com/img/eadb/b36f/e671035e79447446d147615c9062f750?Expires=1736121600&Key-Pair-Id=APKAQ4GOSFWCVNEHN3O4&Signature=a-627p-PZdDPcfiCwDpDqvOzLMDxOmkHG11FzRR0MyUUJA2jnbFMJspLqpvbPDRD5fckhq1jBbWG86WHYCJb2kiRueq~VzSZ-xwcpZ0yqcnm6ilwCa005qxq680LIiI0Ty05HVwN7unyiMy3eXez2OvYvDFT3WMqa5bRhEe7Jw6BVUkS~noWHJsELGOlxVyIBz48QHNZCmQKN4wqhj-5zc59tMGRxX0gCfJpba6ruXoPw7xHztp3-nSFPloACNbSgzKR-jENcS9cZfqM8pS5QYpN23UJNRe0CwkT75PKtX2uMvHbh8cOiPXVgx0gJV-~gd3EfX0wIkRdwRKapgsKaQ__"
        },        {
            "id": "6l",
            "price": 86.27,
            "image":"https://t4.ftcdn.net/jpg/06/11/70/43/360_F_611704389_3h6UA692iFCCdWm6LxPtrRhqpEugnSF1.jpg",
            "rating": 4,
            "title": "Loaded Fries At Aloo Cart",
            "saleOff": 15,
            "location": [
                {"country":"Pakistan", "city":"Lahore"},
                {"country":"Washington D.C.","city":"Southwest"},
                {"country":"New York", "city":"East Village"},
                {"country":"New York","city": "Lower East Side"},
                {"country":"Midtown East","city":"New York"},
                {"country":"Washington D.C.","city": "Southwest"}
            ],
            "userImg":"https://s3-alpha-sig.figma.com/img/eadb/b36f/e671035e79447446d147615c9062f750?Expires=1736121600&Key-Pair-Id=APKAQ4GOSFWCVNEHN3O4&Signature=a-627p-PZdDPcfiCwDpDqvOzLMDxOmkHG11FzRR0MyUUJA2jnbFMJspLqpvbPDRD5fckhq1jBbWG86WHYCJb2kiRueq~VzSZ-xwcpZ0yqcnm6ilwCa005qxq680LIiI0Ty05HVwN7unyiMy3eXez2OvYvDFT3WMqa5bRhEe7Jw6BVUkS~noWHJsELGOlxVyIBz48QHNZCmQKN4wqhj-5zc59tMGRxX0gCfJpba6ruXoPw7xHztp3-nSFPloACNbSgzKR-jENcS9cZfqM8pS5QYpN23UJNRe0CwkT75PKtX2uMvHbh8cOiPXVgx0gJV-~gd3EfX0wIkRdwRKapgsKaQ__"
        },        {
            "id": "6m",
            "price": 86.27,
            "image":"https://media.istockphoto.com/id/1305699663/photo/seafood-platter-grilled-lobster-shrimps-scallops-langoustines-octopus-squid-on-white-plate.jpg?s=612x612&w=0&k=20&c=iEwdxon7CJ0wQEDy8-kwnz7TLdknVw05vaa-Qc_aHow=",
            "rating": 4,
            "title": "Loaded Fries At Aloo Cart",
            "saleOff": 15,
            "location": [
                {"country":"Pakistan", "city":"Lahore"},
                {"country":"Washington D.C.","city":"Southwest"},
                {"country":"New York", "city":"East Village"},
                {"country":"New York","city": "Lower East Side"},
                {"country":"Midtown East","city":"New York"},
                {"country":"Washington D.C.","city": "Southwest"}
            ],
            "userImg":"https://s3-alpha-sig.figma.com/img/eadb/b36f/e671035e79447446d147615c9062f750?Expires=1736121600&Key-Pair-Id=APKAQ4GOSFWCVNEHN3O4&Signature=a-627p-PZdDPcfiCwDpDqvOzLMDxOmkHG11FzRR0MyUUJA2jnbFMJspLqpvbPDRD5fckhq1jBbWG86WHYCJb2kiRueq~VzSZ-xwcpZ0yqcnm6ilwCa005qxq680LIiI0Ty05HVwN7unyiMy3eXez2OvYvDFT3WMqa5bRhEe7Jw6BVUkS~noWHJsELGOlxVyIBz48QHNZCmQKN4wqhj-5zc59tMGRxX0gCfJpba6ruXoPw7xHztp3-nSFPloACNbSgzKR-jENcS9cZfqM8pS5QYpN23UJNRe0CwkT75PKtX2uMvHbh8cOiPXVgx0gJV-~gd3EfX0wIkRdwRKapgsKaQ__"
        },        {
            "id": "6n",
            "price": 86.27,
            "image":"https://encrypted-tbn0.gstatic.com/images?q=tbn:ANd9GcT82H9xnm1TxLba4pAFlKR9eot500pUhgohug&s",
            "rating": 4,
            "title": "Loaded Fries At Aloo Cart",
            "saleOff": 15,
            "location": [
                {"country":"Pakistan", "city":"Lahore"},
                {"country":"Washington D.C.","city":"Southwest"},
                {"country":"New York", "city":"East Village"},
                {"country":"New York","city": "Lower East Side"},
                {"country":"Midtown East","city":"New York"},
                {"country":"Washington D.C.","city": "Southwest"}
            ],
            "userImg":"https://s3-alpha-sig.figma.com/img/eadb/b36f/e671035e79447446d147615c9062f750?Expires=1736121600&Key-Pair-Id=APKAQ4GOSFWCVNEHN3O4&Signature=a-627p-PZdDPcfiCwDpDqvOzLMDxOmkHG11FzRR0MyUUJA2jnbFMJspLqpvbPDRD5fckhq1jBbWG86WHYCJb2kiRueq~VzSZ-xwcpZ0yqcnm6ilwCa005qxq680LIiI0Ty05HVwN7unyiMy3eXez2OvYvDFT3WMqa5bRhEe7Jw6BVUkS~noWHJsELGOlxVyIBz48QHNZCmQKN4wqhj-5zc59tMGRxX0gCfJpba6ruXoPw7xHztp3-nSFPloACNbSgzKR-jENcS9cZfqM8pS5QYpN23UJNRe0CwkT75PKtX2uMvHbh8cOiPXVgx0gJV-~gd3EfX0wIkRdwRKapgsKaQ__"
        },        {
            "id": "6ao",
            "price": 86.27,
            "image":"https://i.pinimg.com/736x/ef/de/e3/efdee37a0c17d3e7f1cf5cd50c126f15.jpg",
            "rating": 4,
            "title": "Loaded Fries At Aloo Cart",
            "saleOff": 15,
            "location": [
                {"country":"Pakistan", "city":"Lahore"},
                {"country":"Washington D.C.","city":"Southwest"},
                {"country":"New York", "city":"East Village"},
                {"country":"New York","city": "Lower East Side"},
                {"country":"Midtown East","city":"New York"},
                {"country":"Washington D.C.","city": "Southwest"}
            ],
            "userImg":"https://s3-alpha-sig.figma.com/img/eadb/b36f/e671035e79447446d147615c9062f750?Expires=1736121600&Key-Pair-Id=APKAQ4GOSFWCVNEHN3O4&Signature=a-627p-PZdDPcfiCwDpDqvOzLMDxOmkHG11FzRR0MyUUJA2jnbFMJspLqpvbPDRD5fckhq1jBbWG86WHYCJb2kiRueq~VzSZ-xwcpZ0yqcnm6ilwCa005qxq680LIiI0Ty05HVwN7unyiMy3eXez2OvYvDFT3WMqa5bRhEe7Jw6BVUkS~noWHJsELGOlxVyIBz48QHNZCmQKN4wqhj-5zc59tMGRxX0gCfJpba6ruXoPw7xHztp3-nSFPloACNbSgzKR-jENcS9cZfqM8pS5QYpN23UJNRe0CwkT75PKtX2uMvHbh8cOiPXVgx0gJV-~gd3EfX0wIkRdwRKapgsKaQ__"
        },        {
            "id": "6ap",
            "price": 86.27,
            "image":"https://encrypted-tbn0.gstatic.com/images?q=tbn:ANd9GcTCmQbhdw5zk78nUWp60gV7l61jn1ZUL6Jr7g&s",
            "rating": 4,
            "title": "Loaded Fries At Aloo Cart",
            "saleOff": 15,
            "location": [
                {"country":"Pakistan", "city":"Lahore"},
                {"country":"Washington D.C.","city":"Southwest"},
                {"country":"New York", "city":"East Village"},
                {"country":"New York","city": "Lower East Side"},
                {"country":"Midtown East","city":"New York"},
                {"country":"Washington D.C.","city": "Southwest"}
            ],
            "userImg":"https://s3-alpha-sig.figma.com/img/eadb/b36f/e671035e79447446d147615c9062f750?Expires=1736121600&Key-Pair-Id=APKAQ4GOSFWCVNEHN3O4&Signature=a-627p-PZdDPcfiCwDpDqvOzLMDxOmkHG11FzRR0MyUUJA2jnbFMJspLqpvbPDRD5fckhq1jBbWG86WHYCJb2kiRueq~VzSZ-xwcpZ0yqcnm6ilwCa005qxq680LIiI0Ty05HVwN7unyiMy3eXez2OvYvDFT3WMqa5bRhEe7Jw6BVUkS~noWHJsELGOlxVyIBz48QHNZCmQKN4wqhj-5zc59tMGRxX0gCfJpba6ruXoPw7xHztp3-nSFPloACNbSgzKR-jENcS9cZfqM8pS5QYpN23UJNRe0CwkT75PKtX2uMvHbh8cOiPXVgx0gJV-~gd3EfX0wIkRdwRKapgsKaQ__"
        },        {
            "id": "6qa",
            "price": 86.27,
            "image":"https://encrypted-tbn0.gstatic.com/images?q=tbn:ANd9GcRwIJ5hgcPrrDQZt0FDvvMYTpFO2g8_6ezmbA&s",
            "rating": 4,
            "title": "Loaded Fries At Aloo Cart",
            "saleOff": 15,
            "location": [
                {"country":"Pakistan", "city":"Lahore"},
                {"country":"Washington D.C.","city":"Southwest"},
                {"country":"New York", "city":"East Village"},
                {"country":"New York","city": "Lower East Side"},
                {"country":"Midtown East","city":"New York"},
                {"country":"Washington D.C.","city": "Southwest"}
            ],
            "userImg":"https://s3-alpha-sig.figma.com/img/eadb/b36f/e671035e79447446d147615c9062f750?Expires=1736121600&Key-Pair-Id=APKAQ4GOSFWCVNEHN3O4&Signature=a-627p-PZdDPcfiCwDpDqvOzLMDxOmkHG11FzRR0MyUUJA2jnbFMJspLqpvbPDRD5fckhq1jBbWG86WHYCJb2kiRueq~VzSZ-xwcpZ0yqcnm6ilwCa005qxq680LIiI0Ty05HVwN7unyiMy3eXez2OvYvDFT3WMqa5bRhEe7Jw6BVUkS~noWHJsELGOlxVyIBz48QHNZCmQKN4wqhj-5zc59tMGRxX0gCfJpba6ruXoPw7xHztp3-nSFPloACNbSgzKR-jENcS9cZfqM8pS5QYpN23UJNRe0CwkT75PKtX2uMvHbh8cOiPXVgx0gJV-~gd3EfX0wIkRdwRKapgsKaQ__"
        },        {
            "id": "6rsa",
            "price": 86.27,
            "image":"https://encrypted-tbn0.gstatic.com/images?q=tbn:ANd9GcS0w_ScFOzjAgCrSBAyT6Q1ZvJXd5nLisnh0w&s",
            "rating": 4,
            "title": "Loaded Fries At Aloo Cart",
            "saleOff": 15,
            "location": [
                {"country":"Pakistan", "city":"Lahore"},
                {"country":"Washington D.C.","city":"Southwest"},
                {"country":"New York", "city":"East Village"},
                {"country":"New York","city": "Lower East Side"},
                {"country":"Midtown East","city":"New York"},
                {"country":"Washington D.C.","city": "Southwest"}
            ],
            "userImg":"https://s3-alpha-sig.figma.com/img/eadb/b36f/e671035e79447446d147615c9062f750?Expires=1736121600&Key-Pair-Id=APKAQ4GOSFWCVNEHN3O4&Signature=a-627p-PZdDPcfiCwDpDqvOzLMDxOmkHG11FzRR0MyUUJA2jnbFMJspLqpvbPDRD5fckhq1jBbWG86WHYCJb2kiRueq~VzSZ-xwcpZ0yqcnm6ilwCa005qxq680LIiI0Ty05HVwN7unyiMy3eXez2OvYvDFT3WMqa5bRhEe7Jw6BVUkS~noWHJsELGOlxVyIBz48QHNZCmQKN4wqhj-5zc59tMGRxX0gCfJpba6ruXoPw7xHztp3-nSFPloACNbSgzKR-jENcS9cZfqM8pS5QYpN23UJNRe0CwkT75PKtX2uMvHbh8cOiPXVgx0gJV-~gd3EfX0wIkRdwRKapgsKaQ__"
        }
    ]
}